[
  {
    "districtId": "882b43e6-2549-4cac-9809-93c6464f70fd",
    "warehouseId": "db5f8bdc-10e2-4655-9b11-17697f485033",
    "name": "Jonesboro District",
    "address": "7 Anthes Pass",
    "city": "Jonesboro",
    "state": "GA",
    "postalCode": "30238",
    "salesTax": 0.08,
    "yearToDateBalance": 0.0,
    "nextOrderId": "",
    "latitude": 33.4944,
    "longitude": -84.3797
  },
  {
    "districtId": "c9bade8a-a709-46c5-94ef-9f02a2103a03",
    "warehouseId": "db5f8bdc-10e2-4655-9b11-17697f485033",
    "name": "Riverdale District",
    "address": "212 Morningstar Terrace",
    "city": "Riverdale",
    "state": "GA",
    "postalCode": "30274",
    "salesTax": 0.08,
    "yearToDateBalance": 0.0,
    "nextOrderId": "",
    "latitude": 33.5667,
    "longitude": -84.4364
  },
  {
    "districtId": "c3d1ee72-4796-45e6-a9f5-57a30f78e616",
    "warehouseId": "db5f8bdc-10e2-4655-9b11-17697f485033",
    "name": "Stockbridge District",
    "address": "553 Nancy Center",
    "city": "Stockbridge",
    "state": "GA",
    "postalCode": "30281",
    "salesTax": 0.08,
    "yearToDateBalance": 0.0,
    "nextOrderId": "",
    "latitude": 33.5633,
    "longitude": -84.2165
  },
  {
    "districtId": "c1527d66-34e7-4b2a-83a3-38f1a0c76e12",
    "warehouseId": "db5f8bdc-10e2-4655-9b11-17697f485033",
    "name": "Morrow District",
    "address": "92465 Mesta Terrace",
    "city": "Morrow",
    "state": "GA",
    "postalCode": "30287",
    "salesTax": 0.07,
    "yearToDateBalance": 0.0,
    "nextOrderId": "",
    "latitude": 33.5007,
    "longitude": -84.3513
  },
  {
    "districtId": "e86e641d-89fc-4c18-905c-99cf915d3b31",
    "warehouseId": "db5f8bdc-10e2-4655-9b11-17697f485033",
    "name": "Union City District",
    "address": "46 Thompson Street",
    "city": "Union City",
    "state": "GA",
    "postalCode": "30291",
    "salesTax": 0.0725,
    "yearToDateBalance": 0.0,
    "nextOrderId": "",
    "latitude": 33.5832,
    "longitude": -84.5499
  },
  {
    "districtId": "af08f55e-f7e2-4e6e-ba2e-b55e8d3bb3ed",
    "warehouseId": "db5f8bdc-10e2-4655-9b11-17697f485033",
    "name": "Rex District",
    "address": "71 Nelson Park",
    "city": "Rex",
    "state": "GA",
    "postalCode": "30273",
    "salesTax": 0.08,
    "yearToDateBalance": 0.0,
    "nextOrderId": "",
    "latitude": 33.5808,
    "longitude": -84.2782
  },
  {
    "districtId": "6ac914b1-af4f-45fe-8e35-683525ae8a08",
    "warehouseId": "db5f8bdc-10e2-4655-9b11-17697f485033",
    "name": "Morrow District",
    "address": "96 Basil Alley",
    "city": "Morrow",
    "state": "GA",
    "postalCode": "30260",
    "salesTax": 0.07,
    "yearToDateBalance": 0.0,
    "nextOrderId": "",
    "latitude": 33.5007,
    "longitude": -84.3513
  },
  {
    "districtId": "f32ff419-bbff-45cc-a41d-625c81a5935f",
    "warehouseId": "db5f8bdc-10e2-4655-9b11-17697f485033",
    "name": "Fairburn District",
    "address": "106 Crescent Oaks Road",
    "city": "Fairburn",
    "state": "GA",
    "postalCode": "30213",
    "salesTax": 0.0775,
    "yearToDateBalance": 0.0,
    "nextOrderId": "",
    "latitude": 33.5648,
    "longitude": -84.5809
  },
  {
    "districtId": "1fe06f65-1454-4585-bbd3-a08c272e899c",
    "warehouseId": "db5f8bdc-10e2-4655-9b11-17697f485033",
    "name": "Forest Park District",
    "address": "1841 Veith Street",
    "city": "Forest Park",
    "state": "GA",
    "postalCode": "30298",
    "salesTax": 0.1,
    "yearToDateBalance": 0.0,
    "nextOrderId": "",
    "latitude": 33.5007,
    "longitude": -84.3513
  },
  {
    "districtId": "70ae2be9-8ac6-40ac-a6d6-50b77718af0c",
    "warehouseId": "db5f8bdc-10e2-4655-9b11-17697f485033",
    "name": "Red Oak District",
    "address": "1 North Center",
    "city": "Red Oak",
    "state": "GA",
    "postalCode": "30272",
    "salesTax": 0.06,
    "yearToDateBalance": 0.0,
    "nextOrderId": "",
    "latitude": 33.6259,
    "longitude": -84.5163
  },
  {
    "districtId": "e3f4304f-c312-41ba-8cef-c461452af6cc",
    "warehouseId": "711fc3c9-2124-406f-a2a1-e64230584a65",
    "name": "Palos Park District",
    "address": "32 Johnson Trail",
    "city": "Palos Park",
    "state": "IL",
    "postalCode": "60464",
    "salesTax": 0.095,
    "yearToDateBalance": 0.0,
    "nextOrderId": "",
    "latitude": 41.6624,
    "longitude": -87.8521
  },
  {
    "districtId": "bf23f0c9-8fa1-42dc-94b1-b1405079802b",
    "warehouseId": "711fc3c9-2124-406f-a2a1-e64230584a65",
    "name": "Bolingbrook District",
    "address": "47885 Gale Court",
    "city": "Bolingbrook",
    "state": "IL",
    "postalCode": "60490",
    "salesTax": 0.085,
    "yearToDateBalance": 0.0,
    "nextOrderId": "",
    "latitude": 41.679,
    "longitude": -88.1403
  },
  {
    "districtId": "13ad6da1-93e1-40b5-84c1-660bae5cc37a",
    "warehouseId": "711fc3c9-2124-406f-a2a1-e64230584a65",
    "name": "Lemont District",
    "address": "22 Lyons Junction",
    "city": "Lemont",
    "state": "IL",
    "postalCode": "60439",
    "salesTax": 0.0913,
    "yearToDateBalance": 0.0,
    "nextOrderId": "",
    "latitude": 41.7074,
    "longitude": -87.9756
  },
  {
    "districtId": "b506b940-c37a-4527-a308-ed2291faaa6d",
    "warehouseId": "711fc3c9-2124-406f-a2a1-e64230584a65",
    "name": "Worth District",
    "address": "97 Dunning Way",
    "city": "Worth Beach",
    "state": "IL",
    "postalCode": "60482",
    "salesTax": 0.1,
    "yearToDateBalance": 0.0,
    "nextOrderId": "",
    "latitude": 41.6895,
    "longitude": -87.7863
  },
  {
    "districtId": "a1bf44bc-683c-478c-8a41-d8aa73c18f68",
    "warehouseId": "711fc3c9-2124-406f-a2a1-e64230584a65",
    "name": "Palos Hills District",
    "address": "779 Utah Junction",
    "city": "Palos Hills",
    "state": "IL",
    "postalCode": "60465",
    "salesTax": 0.0625,
    "yearToDateBalance": 0.0,
    "nextOrderId": "",
    "latitude": 41.7004,
    "longitude": -87.8263
  },
  {
    "districtId": "77928f25-4a12-46d2-88ff-e0f1540a1636",
    "warehouseId": "711fc3c9-2124-406f-a2a1-e64230584a65",
    "name": "Chicago Ridge District",
    "address": "6166 Logan Way",
    "city": "Chicago Ridge",
    "state": "IL",
    "postalCode": "60415",
    "salesTax": 0.1,
    "yearToDateBalance": 0.0,
    "nextOrderId": "",
    "latitude": 41.7017,
    "longitude": -87.7774
  },
  {
    "districtId": "f29cc016-f02f-4715-bd5a-65cdecd1a549",
    "warehouseId": "711fc3c9-2124-406f-a2a1-e64230584a65",
    "name": "Naperville District",
    "address": "617 Crest Line Drive",
    "city": "Naperville",
    "state": "IL",
    "postalCode": "60564",
    "salesTax": 0.0913,
    "yearToDateBalance": 0.0,
    "nextOrderId": "",
    "latitude": 41.704,
    "longitude": -88.1952
  },
  {
    "districtId": "5d72c7f1-1fad-4410-8756-725a4db449ee",
    "warehouseId": "711fc3c9-2124-406f-a2a1-e64230584a65",
    "name": "Oak Lawn District",
    "address": "2 Shopko Hill",
    "city": "Oak Lawn Manor",
    "state": "IL",
    "postalCode": "60454",
    "salesTax": 0.0913,
    "yearToDateBalance": 0.0,
    "nextOrderId": "",
    "latitude": 41.8119,
    "longitude": -87.6873
  },
  {
    "districtId": "6c40fd98-6696-403a-894a-559af5e96094",
    "warehouseId": "711fc3c9-2124-406f-a2a1-e64230584a65",
    "name": "Aurora District",
    "address": "5362 Veith Circle",
    "city": "Aurora",
    "state": "IL",
    "postalCode": "60503",
    "salesTax": 0.0913,
    "yearToDateBalance": 0.0,
    "nextOrderId": "",
    "latitude": 41.8397,
    "longitude": -88.0887
  },
  {
    "districtId": "5a3349be-f30e-4ef3-8ce7-0a538a2b23d2",
    "warehouseId": "711fc3c9-2124-406f-a2a1-e64230584a65",
    "name": "Evergreen Park District",
    "address": "8 John Wall Trail",
    "city": "Evergreen Park",
    "state": "IL",
    "postalCode": "60805",
    "salesTax": 0.09375,
    "yearToDateBalance": 0.0,
    "nextOrderId": "",
    "latitude": 41.8119,
    "longitude": -87.6873
  },
  {
    "districtId": "48d55ce0-6e38-4940-8cb8-395a9b706644",
    "warehouseId": "d7890874-f4ce-4f35-9cd0-bb1b3d35721b",
    "name": "Castle Rock District",
    "address": "6518 Darwin Point",
    "city": "Castle Rock",
    "state": "CO",
    "postalCode": "80108",
    "salesTax": 0.08,
    "yearToDateBalance": 0.0,
    "nextOrderId": "",
    "latitude": 39.374912,
    "longitude": -104.853859
  },
  {
    "districtId": "4e6a8bc2-c672-494b-aca6-10b4d530fbc3",
    "warehouseId": "d7890874-f4ce-4f35-9cd0-bb1b3d35721b",
    "name": "Louviers District",
    "address": "12 Morrow Court",
    "city": "Louviers",
    "state": "CO",
    "postalCode": "80131",
    "salesTax": 0.039,
    "yearToDateBalance": 0.0,
    "nextOrderId": "",
    "latitude": 39.3479,
    "longitude": -104.9947
  },
  {
    "districtId": "ffdf6140-59fa-4b8f-8078-02f20d40f8fc",
    "warehouseId": "d7890874-f4ce-4f35-9cd0-bb1b3d35721b",
    "name": "Littleton District",
    "address": "41 La Follette Hill",
    "city": "Littleton",
    "state": "CO",
    "postalCode": "80125",
    "salesTax": 0.0375,
    "yearToDateBalance": 0.0,
    "nextOrderId": "",
    "latitude": 39.3479,
    "longitude": -104.9947
  },
  {
    "districtId": "cc6cec4b-fb2e-4971-b62a-f887f3febfa8",
    "warehouseId": "d7890874-f4ce-4f35-9cd0-bb1b3d35721b",
    "name": "Parker District",
    "address": "6 Pierstorff Circle",
    "city": "Parker",
    "state": "CO",
    "postalCode": "80134",
    "salesTax": 0.086,
    "yearToDateBalance": 0.0,
    "nextOrderId": "",
    "latitude": 39.5102,
    "longitude": -104.7216
  },
  {
    "districtId": "b93e59d5-e557-455f-9b61-0239562eef6d",
    "warehouseId": "d7890874-f4ce-4f35-9cd0-bb1b3d35721b",
    "name": "Littleton District",
    "address": "14075 Swallow Terrace",
    "city": "Littleton",
    "state": "CO",
    "postalCode": "80127",
    "salesTax": 0.0375,
    "yearToDateBalance": 0.0,
    "nextOrderId": "",
    "latitude": 39.522,
    "longitude": -105.2239
  },
  {
    "districtId": "afe32c60-93a0-45fb-bf87-0c07b51ba2d3",
    "warehouseId": "d7890874-f4ce-4f35-9cd0-bb1b3d35721b",
    "name": "Lone Tree District",
    "address": "433 Menomonie Center",
    "city": "Lone Tree",
    "state": "CO",
    "postalCode": "80126",
    "salesTax": 0.028125,
    "yearToDateBalance": 0.0,
    "nextOrderId": "",
    "latitude": 39.3479,
    "longitude": -104.9947
  },
  {
    "districtId": "dea68feb-ce47-47e1-8019-2c0309b11465",
    "warehouseId": "d7890874-f4ce-4f35-9cd0-bb1b3d35721b",
    "name": "Englewood District",
    "address": "719 Main Drive",
    "city": "Englewood",
    "state": "CO",
    "postalCode": "80112",
    "salesTax": 0.07,
    "yearToDateBalance": 0.0,
    "nextOrderId": "",
    "latitude": 39.7388,
    "longitude": -104.4083
  },
  {
    "districtId": "e7d36784-4431-4bb0-becb-a60d349bbac6",
    "warehouseId": "d7890874-f4ce-4f35-9cd0-bb1b3d35721b",
    "name": "Aurora District",
    "address": "78052 Holmberg Center",
    "city": "Aurora",
    "state": "CO",
    "postalCode": "80016",
    "salesTax": 0.08,
    "yearToDateBalance": 0.0,
    "nextOrderId": "",
    "latitude": 39.7388,
    "longitude": -104.4083
  },
  {
    "districtId": "f9c47667-f24c-404a-877c-9b3103fb9ba3",
    "warehouseId": "d7890874-f4ce-4f35-9cd0-bb1b3d35721b",
    "name": "Morrison District",
    "address": "275 Novick Court",
    "city": "Morrison",
    "state": "CO",
    "postalCode": "80465",
    "salesTax": 0.0825,
    "yearToDateBalance": 0.0,
    "nextOrderId": "",
    "latitude": 39.6125,
    "longitude": -105.1746
  },
  {
    "districtId": "1007e720-a7b6-4d8d-a4d4-b399d561af01",
    "warehouseId": "d7890874-f4ce-4f35-9cd0-bb1b3d35721b",
    "name": "Golden District",
    "address": "82362 Kings Terrace",
    "city": "Golden",
    "state": "CO",
    "postalCode": "80419",
    "salesTax": 0.065,
    "yearToDateBalance": 0.0,
    "nextOrderId": "",
    "latitude": 39.522,
    "longitude": -105.2239
  },
  {
    "districtId": "497f2751-9740-40e2-b59c-b873c0b7a44b",
    "warehouseId": "073ab6ef-27c7-4176-ae53-5cf27ac5fd0e",
    "name": "Rockwood District",
    "address": "711 Ramsey Plaza",
    "city": "Rockwood",
    "state": "MI",
    "postalCode": "48173",
    "salesTax": 0.06,
    "yearToDateBalance": 0.0,
    "nextOrderId": "",
    "latitude": 42.1122,
    "longitude": -83.2726
  },
  {
    "districtId": "20b1abfb-bc14-4ae9-bb64-25e066241527",
    "warehouseId": "073ab6ef-27c7-4176-ae53-5cf27ac5fd0e",
    "name": "Flat Rock District",
    "address": "763 Kinsman Crossing",
    "city": "Flat Rock",
    "state": "MI",
    "postalCode": "48134",
    "salesTax": 0.06,
    "yearToDateBalance": 0.0,
    "nextOrderId": "",
    "latitude": 42.1055,
    "longitude": -83.2795
  },
  {
    "districtId": "408b2761-b166-4270-b4bd-a56c28128133",
    "warehouseId": "073ab6ef-27c7-4176-ae53-5cf27ac5fd0e",
    "name": "New Boston District",
    "address": "67793 Anzinger Plaza",
    "city": "New Boston",
    "state": "MI",
    "postalCode": "48164",
    "salesTax": 0.06,
    "yearToDateBalance": 0.0,
    "nextOrderId": "",
    "latitude": 42.1449,
    "longitude": -83.3589
  },
  {
    "districtId": "da875ccf-5307-44a1-a5ae-a5a0ad5fd44f",
    "warehouseId": "073ab6ef-27c7-4176-ae53-5cf27ac5fd0e",
    "name": "Trenton District",
    "address": "4 Village Way",
    "city": "Trenton",
    "state": "MI",
    "postalCode": "48183",
    "salesTax": 0.06,
    "yearToDateBalance": 0.0,
    "nextOrderId": "",
    "latitude": 42.1382,
    "longitude": -83.2179
  },
  {
    "districtId": "98e594ed-8f2e-4a94-bec2-2cb78293a50d",
    "warehouseId": "073ab6ef-27c7-4176-ae53-5cf27ac5fd0e",
    "name": "Grosse Ile District",
    "address": "3676 Bobwhite Park",
    "city": "Grosse Ile",
    "state": "MI",
    "postalCode": "48138",
    "salesTax": 0.06,
    "yearToDateBalance": 0.0,
    "nextOrderId": "",
    "latitude": 42.1352,
    "longitude": -83.1561
  },
  {
    "districtId": "83a77d60-d19d-44b7-8971-c176b8a3dd4f",
    "warehouseId": "073ab6ef-27c7-4176-ae53-5cf27ac5fd0e",
    "name": "Belleville District",
    "address": "52 Badeau Circle",
    "city": "Belleville Tree",
    "state": "MI",
    "postalCode": "48112",
    "salesTax": 0.06,
    "yearToDateBalance": 0.0,
    "nextOrderId": "",
    "latitude": 42.2399,
    "longitude": -83.1508
  },
  {
    "districtId": "93b7c250-400f-458e-8d19-317f27bae3f3",
    "warehouseId": "073ab6ef-27c7-4176-ae53-5cf27ac5fd0e",
    "name": "Wyandotte District",
    "address": "1 Waxwing Road",
    "city": "Wyandotte",
    "state": "MI",
    "postalCode": "48192",
    "salesTax": 0.06,
    "yearToDateBalance": 0.0,
    "nextOrderId": "",
    "latitude": 42.195,
    "longitude": -83.2066
  },
  {
    "districtId": "0c1ba02c-f05b-4cd7-8720-449e5a65daac",
    "warehouseId": "073ab6ef-27c7-4176-ae53-5cf27ac5fd0e",
    "name": "Southgate District",
    "address": "39139 Shasta Pass",
    "city": "Southgate",
    "state": "MI",
    "postalCode": "48195",
    "salesTax": 0.06,
    "yearToDateBalance": 0.0,
    "nextOrderId": "",
    "latitude": 42.2044,
    "longitude": -83.1999
  },
  {
    "districtId": "e6e560cf-930f-4585-9a2b-2f2531ff8826",
    "warehouseId": "073ab6ef-27c7-4176-ae53-5cf27ac5fd0e",
    "name": "Romulus District",
    "address": "44820 Del Sol Parkway",
    "city": "Romulus",
    "state": "MI",
    "postalCode": "48174",
    "salesTax": 0.06,
    "yearToDateBalance": 0.0,
    "nextOrderId": "",
    "latitude": 42.2203,
    "longitude": -83.3583
  },
  {
    "districtId": "6694c3d9-6c4d-4054-908b-c0a6acee5b81",
    "warehouseId": "073ab6ef-27c7-4176-ae53-5cf27ac5fd0e",
    "name": "Lincoln Park District",
    "address": "31793 Northridge Hill",
    "city": "Lincoln Park",
    "state": "MI",
    "postalCode": "48146",
    "salesTax": 0.065,
    "yearToDateBalance": 0.0,
    "nextOrderId": "",
    "latitude": 42.2422,
    "longitude": -83.1807
  },
  {
    "districtId": "71f12ae6-8db9-4d25-aad9-ceb4a1cdf246",
    "warehouseId": "cd7a3e29-0d50-4dee-8ca3-fd1bb43c2f6f",
    "name": "Alvin District",
    "address": "82831 Parkside Lane",
    "city": "Alvin",
    "state": "TX",
    "postalCode": "77512",
    "salesTax": 0.0825,
    "yearToDateBalance": 0.0,
    "nextOrderId": "",
    "latitude": 29.3629,
    "longitude": -95.276
  },
  {
    "districtId": "2460ecf0-d95d-46b2-92bb-226c06573683",
    "warehouseId": "cd7a3e29-0d50-4dee-8ca3-fd1bb43c2f6f",
    "name": "Thompsons District",
    "address": "67 Saint Paul Terrace",
    "city": "Thompsons",
    "state": "TX",
    "postalCode": "77481",
    "salesTax": 0.0725,
    "yearToDateBalance": 0.0,
    "nextOrderId": "",
    "latitude": 29.4683,
    "longitude": -95.5776
  },
  {
    "districtId": "54d9ce74-a95f-4824-a6eb-f64fba07b7d6",
    "warehouseId": "cd7a3e29-0d50-4dee-8ca3-fd1bb43c2f6f",
    "name": "Manvel District",
    "address": "49768 Kim Lane",
    "city": "Manvel",
    "state": "TX",
    "postalCode": "77578",
    "salesTax": 0.05,
    "yearToDateBalance": 0.0,
    "nextOrderId": "",
    "latitude": 29.4694,
    "longitude": -95.3503
  },
  {
    "districtId": "4e5ed9ad-3d9e-4887-b56b-75e6cedfaace",
    "warehouseId": "cd7a3e29-0d50-4dee-8ca3-fd1bb43c2f6f",
    "name": "League City District",
    "address": "5 Buena Vista Drive",
    "city": "League City",
    "state": "TX",
    "postalCode": "77573",
    "salesTax": 0.0825,
    "yearToDateBalance": 0.0,
    "nextOrderId": "",
    "latitude": 29.5116,
    "longitude": -95.0582
  },
  {
    "districtId": "635ed887-706d-4cf2-9d5f-9aab87037e83",
    "warehouseId": "cd7a3e29-0d50-4dee-8ca3-fd1bb43c2f6f",
    "name": "Friendswood District",
    "address": "5315 Ludington Place",
    "city": "Friendswood",
    "state": "TX",
    "postalCode": "77549",
    "salesTax": 0.0825,
    "yearToDateBalance": 0.0,
    "nextOrderId": "",
    "latitude": 29.3305,
    "longitude": -94.8002
  },
  {
    "districtId": "4186e3cb-d384-43fc-9df8-02f0d0e2a27c",
    "warehouseId": "cd7a3e29-0d50-4dee-8ca3-fd1bb43c2f6f",
    "name": "Missouri City District",
    "address": "61176 Loftsgordon Park",
    "city": "Missouri City",
    "state": "TX",
    "postalCode": "77459",
    "salesTax": 0.0825,
    "yearToDateBalance": 0.0,
    "nextOrderId": "",
    "latitude": 29.5962,
    "longitude": -95.5115
  },
  {
    "districtId": "6d70e1a0-8d03-4106-a12c-df3a550c5bf8",
    "warehouseId": "cd7a3e29-0d50-4dee-8ca3-fd1bb43c2f6f",
    "name": "Fresno District",
    "address": "1 Lukken Place",
    "city": "Fresno",
    "state": "TX",
    "postalCode": "77545",
    "salesTax": 0.0825,
    "yearToDateBalance": 0.0,
    "nextOrderId": "",
    "latitude": 29.5293,
    "longitude": -95.4626
  },
  {
    "districtId": "d80ae9c1-5283-4ec3-b998-515b68d30f04",
    "warehouseId": "cd7a3e29-0d50-4dee-8ca3-fd1bb43c2f6f",
    "name": "Webster District",
    "address": "6 Dawn Road",
    "city": "Webster",
    "state": "TX",
    "postalCode": "77598",
    "salesTax": 0.0825,
    "yearToDateBalance": 0.0,
    "nextOrderId": "",
    "latitude": 29.5564,
    "longitude": -95.144
  },
  {
    "districtId": "5ddcf740-09c0-45b8-9882-f66969ef9c57",
    "warehouseId": "cd7a3e29-0d50-4dee-8ca3-fd1bb43c2f6f",
    "name": "Pearland District",
    "address": "6555 Lukken Point",
    "city": "Pearland",
    "state": "TX",
    "postalCode": "77584",
    "salesTax": 0.0825,
    "yearToDateBalance": 0.0,
    "nextOrderId": "",
    "latitude": 29.5127,
    "longitude": -95.2542
  },
  {
    "districtId": "eb4bd16a-4f6b-4f69-bd91-28f3dce4cd9d",
    "warehouseId": "cd7a3e29-0d50-4dee-8ca3-fd1bb43c2f6f",
    "name": "Sugar Land District",
    "address": "52 Novick Street",
    "city": "Sugar Land",
    "state": "TX",
    "postalCode": "77479",
    "salesTax": 0.0825,
    "yearToDateBalance": 0.0,
    "nextOrderId": "",
    "latitude": 29.5255,
    "longitude": -95.7565
  },
  {
    "districtId": "6ecb396e-1a52-48af-9cf8-2f8dc3ede1d2",
    "warehouseId": "73c56048-2a67-4ae6-aaa7-12ff3f94eb8f",
    "name": "Jacksonville Beach District",
    "address": "6 Manitowish Street",
    "city": "Jacksonville Beach",
    "state": "FL",
    "postalCode": "32250",
    "salesTax": 0.09,
    "yearToDateBalance": 0.0,
    "nextOrderId": "",
    "latitude": 30.2801,
    "longitude": -81.4165
  },
  {
    "districtId": "6f0399ca-051f-46fb-b0e2-80a6b5eb32f9",
    "warehouseId": "73c56048-2a67-4ae6-aaa7-12ff3f94eb8f",
    "name": "Neptune Beach District",
    "address": "10661 Armistice Place",
    "city": "Neptune Beach",
    "state": "FL",
    "postalCode": "32266",
    "salesTax": 0.075,
    "yearToDateBalance": 0.0,
    "nextOrderId": "",
    "latitude": 30.3155,
    "longitude": -81.4051
  },
  {
    "districtId": "75a64ab5-7240-42ca-9871-3d7b9f430c69",
    "warehouseId": "73c56048-2a67-4ae6-aaa7-12ff3f94eb8f",
    "name": "Callahan District",
    "address": "7 Kinsman Avenue",
    "city": "Callahan",
    "state": "FL",
    "postalCode": "32011",
    "salesTax": 0.0913,
    "yearToDateBalance": 0.0,
    "nextOrderId": "",
    "latitude": 30.552,
    "longitude": -81.8145
  },
  {
    "districtId": "057381f5-84cd-431f-b76a-8ce650839eee",
    "warehouseId": "73c56048-2a67-4ae6-aaa7-12ff3f94eb8f",
    "name": "Fernandina Beach District",
    "address": "9580 Daystar Street",
    "city": "Fernandina Beach",
    "state": "FL",
    "postalCode": "32034",
    "salesTax": 0.09125,
    "yearToDateBalance": 0.0,
    "nextOrderId": "",
    "latitude": 30.5516,
    "longitude": -81.6984
  },
  {
    "districtId": "692bfbb5-cd03-4b9d-a3c8-b9ff63f2158c",
    "warehouseId": "73c56048-2a67-4ae6-aaa7-12ff3f94eb8f",
    "name": "Yulee District",
    "address": "47050 Dixon Alley",
    "city": "Yulee",
    "state": "FL",
    "postalCode": "32041",
    "salesTax": 0.0938,
    "yearToDateBalance": 0.0,
    "nextOrderId": "",
    "latitude": 30.6222,
    "longitude": -81.5906
  },
  {
    "districtId": "2a9f8163-e3ec-4ac4-94b4-042731dc9626",
    "warehouseId": "73c56048-2a67-4ae6-aaa7-12ff3f94eb8f",
    "name": "Fernandina Beach District",
    "address": "368 Sunfield Pass",
    "city": "Fernandina Beach",
    "state": "FL",
    "postalCode": "32035",
    "salesTax": 0.09,
    "yearToDateBalance": 0.0,
    "nextOrderId": "",
    "latitude": 30.5516,
    "longitude": -81.6984
  },
  {
    "districtId": "e75a9ad8-2955-4e27-b608-d7bfcce50030",
    "warehouseId": "73c56048-2a67-4ae6-aaa7-12ff3f94eb8f",
    "name": "Kings Bay District",
    "address": "97739 Thompson Way",
    "city": "Kings Bay",
    "state": "GA",
    "postalCode": "31547",
    "salesTax": 0.0913,
    "yearToDateBalance": 0.0,
    "nextOrderId": "",
    "latitude": 30.8047,
    "longitude": -81.6277
  },
  {
    "districtId": "4c94a8a7-d372-4536-8534-6a2812acca92",
    "warehouseId": "73c56048-2a67-4ae6-aaa7-12ff3f94eb8f",
    "name": "Kingsland District",
    "address": "7 Golden Leaf Circle",
    "city": "Kingsland",
    "state": "GA",
    "postalCode": "31548",
    "salesTax": 0.0913,
    "yearToDateBalance": 0.0,
    "nextOrderId": "",
    "latitude": 30.7977,
    "longitude": -81.7075
  },
  {
    "districtId": "78c470d3-776b-4de5-b379-e47fa0c886b6",
    "warehouseId": "73c56048-2a67-4ae6-aaa7-12ff3f94eb8f",
    "name": "Woodbine District",
    "address": "38383 Leroy Pass",
    "city": "Woodbine",
    "state": "GA",
    "postalCode": "31569",
    "salesTax": 0.0913,
    "yearToDateBalance": 0.0,
    "nextOrderId": "",
    "latitude": 30.9437,
    "longitude": -81.6783
  },
  {
    "districtId": "688145fe-693e-48f1-bd9e-31c40f8fd51e",
    "warehouseId": "73c56048-2a67-4ae6-aaa7-12ff3f94eb8f",
    "name": "Saint Marys District",
    "address": "1 Prairie Rose Circle",
    "city": "Saint Marys",
    "state": "GA",
    "postalCode": "31558",
    "salesTax": 0.09375,
    "yearToDateBalance": 0.0,
    "nextOrderId": "",
    "latitude": 30.7735,
    "longitude": -81.5652
  },
  {
    "districtId": "d86010cc-ee12-4e03-8cda-ec8b9be8f1e1",
    "warehouseId": "c7187f89-a11d-44f8-9f00-2385cd1a22d6",
    "name": "Freeman District",
    "address": "2581 Commercial Avenue",
    "city": "Freeman",
    "state": "MO",
    "postalCode": "64746",
    "salesTax": 0.065,
    "yearToDateBalance": 0.0,
    "nextOrderId": "",
    "latitude": 38.6245,
    "longitude": -94.4956
  },
  {
    "districtId": "1ddbb1d7-6f46-458d-b66c-33609852f028",
    "warehouseId": "c7187f89-a11d-44f8-9f00-2385cd1a22d6",
    "name": "Louisburg District",
    "address": "27 Arizona Road",
    "city": "Louisburg",
    "state": "KS",
    "postalCode": "66053",
    "salesTax": 0.095,
    "yearToDateBalance": 0.0,
    "nextOrderId": "",
    "latitude": 38.6073,
    "longitude": -94.6829
  },
  {
    "districtId": "fe023fc7-1531-4970-a136-4fe1cb0af410",
    "warehouseId": "c7187f89-a11d-44f8-9f00-2385cd1a22d6",
    "name": "Harrisonville District",
    "address": "412 Farwell Avenue",
    "city": "Harrisonville",
    "state": "MO",
    "postalCode": "64701",
    "salesTax": 0.0725,
    "yearToDateBalance": 0.0,
    "nextOrderId": "",
    "latitude": 38.6419,
    "longitude": -94.3285
  },
  {
    "districtId": "3c038326-2b7f-421b-a004-92a81ed01ecc",
    "warehouseId": "c7187f89-a11d-44f8-9f00-2385cd1a22d6",
    "name": "Cleveland District",
    "address": "58 Talmadge Park",
    "city": "Cleveland",
    "state": "MO",
    "postalCode": "64734",
    "salesTax": 0.07,
    "yearToDateBalance": 0.0,
    "nextOrderId": "",
    "latitude": 38.6898,
    "longitude": -94.5695
  },
  {
    "districtId": "627430e9-f48c-492f-b82f-b052d626dacd",
    "warehouseId": "c7187f89-a11d-44f8-9f00-2385cd1a22d6",
    "name": "Hillsdale District",
    "address": "555 Spohn Street",
    "city": "Hillsdale",
    "state": "KS",
    "postalCode": "66036",
    "salesTax": 0.08,
    "yearToDateBalance": 0.0,
    "nextOrderId": "",
    "latitude": 38.6581,
    "longitude": -94.8521
  },
  {
    "districtId": "abfa01f5-49df-4533-9eb6-f123d1f91213",
    "warehouseId": "c7187f89-a11d-44f8-9f00-2385cd1a22d6",
    "name": "East Lynne District",
    "address": "9554 Harper Plaza",
    "city": "East Lynne Tree",
    "state": "MO",
    "postalCode": "64743",
    "salesTax": 0.0736,
    "yearToDateBalance": 0.0,
    "nextOrderId": "",
    "latitude": 38.6682,
    "longitude": -94.2333
  },
  {
    "districtId": "eef1a829-60eb-47a6-bcd8-01eeda74ddb9",
    "warehouseId": "c7187f89-a11d-44f8-9f00-2385cd1a22d6",
    "name": "Peculiar District",
    "address": "499 Trailsway Point",
    "city": "Peculiar",
    "state": "MO",
    "postalCode": "64078",
    "salesTax": 0.0885,
    "yearToDateBalance": 0.0,
    "nextOrderId": "",
    "latitude": 38.7165,
    "longitude": -94.4405
  },
  {
    "districtId": "694cae46-5674-47b8-9fa4-bb0a870df6a2",
    "warehouseId": "c7187f89-a11d-44f8-9f00-2385cd1a22d6",
    "name": "Bucyrus District",
    "address": "2 Straubel Terrace",
    "city": "Bucyrus",
    "state": "KS",
    "postalCode": "66013",
    "salesTax": 0.0725,
    "yearToDateBalance": 0.0,
    "nextOrderId": "",
    "latitude": 38.6761,
    "longitude": -94.6851
  },
  {
    "districtId": "caf88de4-ce71-4571-8586-a22e6d48d27d",
    "warehouseId": "c7187f89-a11d-44f8-9f00-2385cd1a22d6",
    "name": "Spring Hill District",
    "address": "5 Warner Hill",
    "city": "Spring Hill",
    "state": "KS",
    "postalCode": "66083",
    "salesTax": 0.09475,
    "yearToDateBalance": 0.0,
    "nextOrderId": "",
    "latitude": 38.7631,
    "longitude": -94.8246
  },
  {
    "districtId": "80f16b7f-4af3-41f6-a5d6-691179a20b33",
    "warehouseId": "c7187f89-a11d-44f8-9f00-2385cd1a22d6",
    "name": "Strasburg District",
    "address": "2626 Red Cloud Trail",
    "city": "Strasburg Park",
    "state": "MO",
    "postalCode": "64090",
    "salesTax": 0.0736,
    "yearToDateBalance": 0.0,
    "nextOrderId": "",
    "latitude": 38.7658,
    "longitude": -94.1609
  },
  {
    "districtId": "3ecefe62-24d3-4413-9bce-0c1624ececcc",
    "warehouseId": "baedfbed-e5a5-4d2a-a3ad-f163ab2bb5f7",
    "name": "Eagleville District",
    "address": "",
    "city": "Eagleville",
    "state": "TN",
    "postalCode": "37060",
    "salesTax": 0.0975,
    "yearToDateBalance": 0.0,
    "nextOrderId": "",
    "latitude": 35.7492,
    "longitude": -86.6327
  },
  {
    "districtId": "433f50c9-a655-4ed8-ba3a-87cc6ca64270",
    "warehouseId": "baedfbed-e5a5-4d2a-a3ad-f163ab2bb5f7",
    "name": "Rockvale District",
    "address": "",
    "city": "Rockvale",
    "state": "TN",
    "postalCode": "37153",
    "salesTax": 0.0975,
    "yearToDateBalance": 0.0,
    "nextOrderId": "",
    "latitude": 35.745,
    "longitude": -86.5352
  },
  {
    "districtId": "b207febd-6824-4087-9431-8701fab0e201",
    "warehouseId": "baedfbed-e5a5-4d2a-a3ad-f163ab2bb5f7",
    "name": "Murfreesboro District",
    "address": "",
    "city": "Murfreesboro",
    "state": "TN",
    "postalCode": "37127",
    "salesTax": 0.0975,
    "yearToDateBalance": 0.0,
    "nextOrderId": "",
    "latitude": 35.8596,
    "longitude": -86.421
  },
  {
    "districtId": "97b64aee-79ec-4ad1-ab18-4d260ad2e420",
    "warehouseId": "baedfbed-e5a5-4d2a-a3ad-f163ab2bb5f7",
    "name": "College Grove District",
    "address": "",
    "city": "College Grove",
    "state": "TN",
    "postalCode": "37046",
    "salesTax": 0.0975,
    "yearToDateBalance": 0.0,
    "nextOrderId": "",
    "latitude": 35.7832,
    "longitude": -86.7495
  },
  {
    "districtId": "94c10e4b-be79-4b7f-b076-f52ca4629cf8",
    "warehouseId": "baedfbed-e5a5-4d2a-a3ad-f163ab2bb5f7",
    "name": "Thompsons Station District",
    "address": "",
    "city": "Thompsons Station",
    "state": "TN",
    "postalCode": "37179",
    "salesTax": 0.0975,
    "yearToDateBalance": 0.0,
    "nextOrderId": "",
    "latitude": 35.809,
    "longitude": -86.8913
  },
  {
    "districtId": "009ba61a-2c66-4250-932c-9895c45b1e2f",
    "warehouseId": "baedfbed-e5a5-4d2a-a3ad-f163ab2bb5f7",
    "name": "Arrington District",
    "address": "",
    "city": "Arrington Tree",
    "state": "TN",
    "postalCode": "37014",
    "salesTax": 0.0975,
    "yearToDateBalance": 0.0,
    "nextOrderId": "",
    "latitude": 35.8566,
    "longitude": -86.6633
  },
  {
    "districtId": "73af6316-a70d-45e7-a9f0-32f30f9f7e97",
    "warehouseId": "baedfbed-e5a5-4d2a-a3ad-f163ab2bb5f7",
    "name": "Franklin District",
    "address": "8 Manitowish Circle",
    "city": "Franklin",
    "state": "TN",
    "postalCode": "37064",
    "salesTax": 0.089,
    "yearToDateBalance": 0.0,
    "nextOrderId": "",
    "latitude": 35.9796,
    "longitude": -86.9106
  },
  {
    "districtId": "0c422158-3981-476f-887c-f0760e17735b",
    "warehouseId": "baedfbed-e5a5-4d2a-a3ad-f163ab2bb5f7",
    "name": "Nolensville District",
    "address": "",
    "city": "Nolensville",
    "state": "TN",
    "postalCode": "37135",
    "salesTax": 0.0975,
    "yearToDateBalance": 0.0,
    "nextOrderId": "",
    "latitude": 35.9307,
    "longitude": -86.6829
  },
  {
    "districtId": "ac96fa1e-985f-4c05-bb8c-ecf89b434a81",
    "warehouseId": "baedfbed-e5a5-4d2a-a3ad-f163ab2bb5f7",
    "name": "Lascassas District",
    "address": "6593 Steensland Center",
    "city": "Lascassas",
    "state": "TN",
    "postalCode": "37085",
    "salesTax": 0.0975,
    "yearToDateBalance": 0.0,
    "nextOrderId": "",
    "latitude": 35.9495,
    "longitude": -86.3112
  },
  {
    "districtId": "35ee9642-0e14-4acd-9b3e-43b94de592f1",
    "warehouseId": "baedfbed-e5a5-4d2a-a3ad-f163ab2bb5f7",
    "name": "Brentwood District",
    "address": "361 Butterfield Pass",
    "city": "Brentwood",
    "state": "TN",
    "postalCode": "37024",
    "salesTax": 0.0975,
    "yearToDateBalance": 0.0,
    "nextOrderId": "",
    "latitude": 36.0063,
    "longitude": -86.7909
  },
  {
    "districtId": "9e91169d-0f04-4fd0-88c0-a820a9aeb0fb",
    "warehouseId": "5a7ea984-bd9c-4eb5-a7b1-12c90f3d27c2",
    "name": "Staten Island District",
    "address": "8704 Pawling Point",
    "city": "Staten Island",
    "state": "NY",
    "postalCode": "10307",
    "salesTax": 0.088,
    "yearToDateBalance": 0.0,
    "nextOrderId": "",
    "latitude": 40.6039,
    "longitude": -74.1472
  },
  {
    "districtId": "b2c50011-64cc-45fe-881d-db87e61339ed",
    "warehouseId": "5a7ea984-bd9c-4eb5-a7b1-12c90f3d27c2",
    "name": "Rockaway Park District",
    "address": "76116 Thackeray Trail",
    "city": "Rockaway Park",
    "state": "NY",
    "postalCode": "11694",
    "salesTax": 0.0875,
    "yearToDateBalance": 0.0,
    "nextOrderId": "",
    "latitude": 40.5766,
    "longitude": -73.8428
  },
  {
    "districtId": "f79473bc-7f75-490b-bb75-392555b8c6b3",
    "warehouseId": "5a7ea984-bd9c-4eb5-a7b1-12c90f3d27c2",
    "name": "Breezy Point District",
    "address": "7455 Utah Drive",
    "city": "Breezy Point",
    "state": "NY",
    "postalCode": "11697",
    "salesTax": 0.0738,
    "yearToDateBalance": 0.0,
    "nextOrderId": "",
    "latitude": 40.5594,
    "longitude": -73.9067
  },
  {
    "districtId": "0364add8-270f-4433-a8df-20bb9fee9261",
    "warehouseId": "5a7ea984-bd9c-4eb5-a7b1-12c90f3d27c2",
    "name": "Woodbridge District",
    "address": "767 Monica Street",
    "city": "Woodbridge Beach",
    "state": "NJ",
    "postalCode": "07095",
    "salesTax": 0.085,
    "yearToDateBalance": 0.0,
    "nextOrderId": "",
    "latitude": 40.556,
    "longitude": -74.2845
  },
  {
    "districtId": "0c05366f-cbc0-4250-b197-bac5e0d8720f",
    "warehouseId": "5a7ea984-bd9c-4eb5-a7b1-12c90f3d27c2",
    "name": "Sewaren District",
    "address": "7948 Del Mar Drive",
    "city": "Sewaren",
    "state": "NJ",
    "postalCode": "07077",
    "salesTax": 0.075,
    "yearToDateBalance": 0.0,
    "nextOrderId": "",
    "latitude": 40.5542,
    "longitude": -74.2607
  },
  {
    "districtId": "cd4e58f7-a23a-4da1-988a-185d744e15c6",
    "warehouseId": "5a7ea984-bd9c-4eb5-a7b1-12c90f3d27c2",
    "name": "Congers District",
    "address": "815 Sommers Parkway",
    "city": "Congers",
    "state": "NY",
    "postalCode": "10920",
    "salesTax": 0.0838,
    "yearToDateBalance": 0.0,
    "nextOrderId": "",
    "latitude": 41.1487,
    "longitude": -73.9413
  },
  {
    "districtId": "f00f55e1-b1d8-4857-9d5b-bb9a768defe0",
    "warehouseId": "5a7ea984-bd9c-4eb5-a7b1-12c90f3d27c2",
    "name": "Suffern District",
    "address": "53073 Daystar Way",
    "city": "Suffern",
    "state": "NY",
    "postalCode": "10901",
    "salesTax": 0.0838,
    "yearToDateBalance": 0.0,
    "nextOrderId": "",
    "latitude": 41.1177,
    "longitude": -74.1241
  },
  {
    "districtId": "5a175079-a0fe-4cb9-9fdb-9cb510fa645d",
    "warehouseId": "5a7ea984-bd9c-4eb5-a7b1-12c90f3d27c2",
    "name": "Briarcliff Manor District",
    "address": "944 Brentwood Park",
    "city": "Briarcliff Manor",
    "state": "NY",
    "postalCode": "10510",
    "salesTax": 0.0838,
    "yearToDateBalance": 0.0,
    "nextOrderId": "",
    "latitude": 41.1444,
    "longitude": -73.835
  },
  {
    "districtId": "9241aeb7-fc40-42a2-8210-6e00222ab452",
    "warehouseId": "5a7ea984-bd9c-4eb5-a7b1-12c90f3d27c2",
    "name": "Pleasantville District",
    "address": "1309 Prairie Rose Pass",
    "city": "Pleasantville",
    "state": "NY",
    "postalCode": "10570",
    "salesTax": 0.0913,
    "yearToDateBalance": 0.0,
    "nextOrderId": "",
    "latitude": 41.119,
    "longitude": -73.733
  },
  {
    "districtId": "cf0aeddd-2c75-4e4a-9494-1412c0f1a746",
    "warehouseId": "5a7ea984-bd9c-4eb5-a7b1-12c90f3d27c2",
    "name": "Valley Cottage District",
    "address": "5 Starling Avenue",
    "city": "Valley Cottage",
    "state": "NY",
    "postalCode": "10989",
    "salesTax": 0.0838,
    "yearToDateBalance": 0.0,
    "nextOrderId": "",
    "latitude": 41.1183,
    "longitude": -73.943
  },
  {
    "districtId": "48456b7e-8ac1-4b8e-be13-22b973c3c1bb",
    "warehouseId": "4d0d7c69-a380-4db1-941c-8f4348aa62e8",
    "name": "Concordville District",
    "address": "668 Stang Court",
    "city": "Concordville",
    "state": "PA",
    "postalCode": "19331",
    "salesTax": 0.06,
    "yearToDateBalance": 0.0,
    "nextOrderId": "",
    "latitude": 39.934,
    "longitude": -75.406
  },
  {
    "districtId": "5ab4b6d3-67ef-44aa-831f-8742f4daf3e6",
    "warehouseId": "4d0d7c69-a380-4db1-941c-8f4348aa62e8",
    "name": "Norwood District",
    "address": "28 Macpherson Terrace",
    "city": "Norwood",
    "state": "PA",
    "postalCode": "19074",
    "salesTax": 0.078,
    "yearToDateBalance": 0.0,
    "nextOrderId": "",
    "latitude": 39.887,
    "longitude": -75.2972
  },
  {
    "districtId": "6ee4ced9-76ed-4120-ba87-aca8cadc8e58",
    "warehouseId": "4d0d7c69-a380-4db1-941c-8f4348aa62e8",
    "name": "Prospect Park District",
    "address": "8 Dakota Point",
    "city": "Prospect Park",
    "state": "PA",
    "postalCode": "19076",
    "salesTax": 0.06,
    "yearToDateBalance": 0.0,
    "nextOrderId": "",
    "latitude": 39.8857,
    "longitude": -75.3082
  },
  {
    "districtId": "1f6e5e2f-445d-47ab-8791-23a1b9638e2f",
    "warehouseId": "4d0d7c69-a380-4db1-941c-8f4348aa62e8",
    "name": "Wallingford District",
    "address": "6241 Ilene Place",
    "city": "Wallingford",
    "state": "PA",
    "postalCode": "19086",
    "salesTax": 0.0635,
    "yearToDateBalance": 0.0,
    "nextOrderId": "",
    "latitude": 39.8871,
    "longitude": -75.3721
  },
  {
    "districtId": "8f5b0f83-602d-4e87-81da-c9fe5e5b4395",
    "warehouseId": "4d0d7c69-a380-4db1-941c-8f4348aa62e8",
    "name": "Folsom District",
    "address": "7 Ryan Drive",
    "city": "Folsom",
    "state": "PA",
    "postalCode": "19033",
    "salesTax": 0.0775,
    "yearToDateBalance": 0.0,
    "nextOrderId": "",
    "latitude": 39.8901,
    "longitude": -75.3296
  },
  {
    "districtId": "ddba7b6e-cfb7-4750-b8e5-82639b051d6b",
    "warehouseId": "4d0d7c69-a380-4db1-941c-8f4348aa62e8",
    "name": "Folcroft District",
    "address": "2069 Anzinger Trail",
    "city": "Folcroft Tree",
    "state": "PA",
    "postalCode": "19032",
    "salesTax": 0.08,
    "yearToDateBalance": 0.0,
    "nextOrderId": "",
    "latitude": 39.8905,
    "longitude": -75.2821
  },
  {
    "districtId": "e9f09038-6af4-49a2-a6bc-8911eb7832b7",
    "warehouseId": "4d0d7c69-a380-4db1-941c-8f4348aa62e8",
    "name": "Chester Heights District",
    "address": "40 Maple Terrace",
    "city": "Chester Heights",
    "state": "PA",
    "postalCode": "19017",
    "salesTax": 0.06,
    "yearToDateBalance": 0.0,
    "nextOrderId": "",
    "latitude": 39.8839,
    "longitude": -75.4669
  },
  {
    "districtId": "ec9551a1-696d-4854-8951-c7803d3003c9",
    "warehouseId": "4d0d7c69-a380-4db1-941c-8f4348aa62e8",
    "name": "Swarthmore District",
    "address": "3746 Prairie Rose Street",
    "city": "Swarthmore",
    "state": "PA",
    "postalCode": "19081",
    "salesTax": 0.08,
    "yearToDateBalance": 0.0,
    "nextOrderId": "",
    "latitude": 39.8967,
    "longitude": -75.3474
  },
  {
    "districtId": "2f3d3c96-536d-4cc1-8855-f65af9901ccf",
    "warehouseId": "4d0d7c69-a380-4db1-941c-8f4348aa62e8",
    "name": "Sharon Hill District",
    "address": "16 8th Hill",
    "city": "Sharon Hill",
    "state": "PA",
    "postalCode": "19079",
    "salesTax": 0.08,
    "yearToDateBalance": 0.0,
    "nextOrderId": "",
    "latitude": 39.9035,
    "longitude": -75.2695
  },
  {
    "districtId": "16bda20d-7fc6-4455-bdf6-bcd1601c786b",
    "warehouseId": "4d0d7c69-a380-4db1-941c-8f4348aa62e8",
    "name": "Edgemont District",
    "address": "46 Sutteridge Circle",
    "city": "Edgemont",
    "state": "PA",
    "postalCode": "19028",
    "salesTax": 0.065,
    "yearToDateBalance": 0.0,
    "nextOrderId": "",
    "latitude": 39.934,
    "longitude": -75.406
  },
  {
    "districtId": "9aa675c4-8977-4d6a-8cc3-5dc08f8ba0e3",
    "warehouseId": "e1839e0b-57a0-472c-b29d-8d57e256ef32",
    "name": "Los Gatos District",
    "address": "53 Lakeland Hill",
    "city": "Los Gatos",
    "state": "CA",
    "postalCode": "95031",
    "salesTax": 0.09,
    "yearToDateBalance": 0.0,
    "nextOrderId": "",
    "latitude": 37.235808,
    "longitude": -121.962375
  },
  {
    "districtId": "813f0a46-ff72-4b3a-8834-08f166056bea",
    "warehouseId": "e1839e0b-57a0-472c-b29d-8d57e256ef32",
    "name": "Holy City District",
    "address": "51 Clarendon Trail",
    "city": "Holy City",
    "state": "CA",
    "postalCode": "95026",
    "salesTax": 0.075,
    "yearToDateBalance": 0.0,
    "nextOrderId": "",
    "latitude": 37.15689,
    "longitude": -121.97885
  },
  {
    "districtId": "887415de-415c-4a26-8e4f-ebc999c36b91",
    "warehouseId": "e1839e0b-57a0-472c-b29d-8d57e256ef32",
    "name": "Redwood Estates District",
    "address": "64975 Kenwood Pass",
    "city": "Redwood Estates",
    "state": "CA",
    "postalCode": "95044",
    "salesTax": 0.0913,
    "yearToDateBalance": 0.0,
    "nextOrderId": "",
    "latitude": 37.1563349,
    "longitude": -121.9866258
  },
  {
    "districtId": "f65d0321-6f3b-412f-8ec0-21e6e84f6493",
    "warehouseId": "e1839e0b-57a0-472c-b29d-8d57e256ef32",
    "name": "New Almaden District",
    "address": "2445 Basil Street",
    "city": "New Almaden",
    "state": "CA",
    "postalCode": "95042",
    "salesTax": 0.09125,
    "yearToDateBalance": 0.0,
    "nextOrderId": "",
    "latitude": 37.1771,
    "longitude": -121.8207
  },
  {
    "districtId": "07238d47-c4d7-46ed-9343-2a7b63dc7416",
    "warehouseId": "e1839e0b-57a0-472c-b29d-8d57e256ef32",
    "name": "San Jose District",
    "address": "139 Orin Junction",
    "city": "San Jose",
    "state": "CA",
    "postalCode": "95141",
    "salesTax": 0.0938,
    "yearToDateBalance": 0.0,
    "nextOrderId": "",
    "latitude": 37.3338,
    "longitude": -121.8894
  },
  {
    "districtId": "9a1f38a5-ac07-4eb2-8443-ae217666c1a0",
    "warehouseId": "e1839e0b-57a0-472c-b29d-8d57e256ef32",
    "name": "Boulder Creek District",
    "address": "14 Old Gate Terrace",
    "city": "Boulder Creek",
    "state": "CA",
    "postalCode": "95006",
    "salesTax": 0.09,
    "yearToDateBalance": 0.0,
    "nextOrderId": "",
    "latitude": 37.1547,
    "longitude": -122.1365
  },
  {
    "districtId": "e1959179-3ff0-4f7e-86fc-6d9b0a032602",
    "warehouseId": "e1839e0b-57a0-472c-b29d-8d57e256ef32",
    "name": "Coyote District",
    "address": "15 Stoughton Drive",
    "city": "Coyote",
    "state": "CA",
    "postalCode": "95013",
    "salesTax": 0.0913,
    "yearToDateBalance": 0.0,
    "nextOrderId": "",
    "latitude": 37.2123,
    "longitude": -121.7416
  },
  {
    "districtId": "1bccef9b-bd7d-4f11-9583-7bd0096568a2",
    "warehouseId": "e1839e0b-57a0-472c-b29d-8d57e256ef32",
    "name": "Milpitas District",
    "address": "36914 Oak Park",
    "city": "Milpitas",
    "state": "CA",
    "postalCode": "95036",
    "salesTax": 0.0913,
    "yearToDateBalance": 0.0,
    "nextOrderId": "",
    "latitude": 37.424,
    "longitude": -121.906
  },
  {
    "districtId": "8f2cfab4-81ba-4b78-94e2-6e7699b318e0",
    "warehouseId": "e1839e0b-57a0-472c-b29d-8d57e256ef32",
    "name": "Loma Mar District",
    "address": "630 Union Crossing",
    "city": "Loma Mar",
    "state": "CA",
    "postalCode": "94021",
    "salesTax": 0.0913,
    "yearToDateBalance": 0.0,
    "nextOrderId": "",
    "latitude": 37.2797,
    "longitude": -122.3148
  },
  {
    "districtId": "782ff9ba-ea39-4922-8b09-72b66c8daf3a",
    "warehouseId": "e1839e0b-57a0-472c-b29d-8d57e256ef32",
    "name": "La Honda District",
    "address": "5 Lien Lane",
    "city": "La Honda",
    "state": "CA",
    "postalCode": "94020",
    "salesTax": 0.09375,
    "yearToDateBalance": 0.0,
    "nextOrderId": "",
    "latitude": 37.2726,
    "longitude": -122.2495
  },
  {
    "districtId": "f80b798d-1e23-4150-bfd1-1c44b3a25023",
    "warehouseId": "f650bba6-8ad4-40a9-a86e-e9c19b43ad96",
    "name": "Renton District",
    "address": "85 Oakridge Pass",
    "city": "Renton",
    "state": "WA",
    "postalCode": "98055",
    "salesTax": 0.101,
    "yearToDateBalance": 0.0,
    "nextOrderId": "",
    "latitude": 47.5058,
    "longitude": -122.1157
  },
  {
    "districtId": "5ef42b29-86ca-4561-a3b7-630874182e4f",
    "warehouseId": "f650bba6-8ad4-40a9-a86e-e9c19b43ad96",
    "name": "Seahurst District",
    "address": "79319 Blackbird Avenue",
    "city": "Seahurst",
    "state": "WA",
    "postalCode": "98062",
    "salesTax": 0.101,
    "yearToDateBalance": 0.0,
    "nextOrderId": "",
    "latitude": 47.4323,
    "longitude": -121.8034
  },
  {
    "districtId": "cd8bfa59-8fc4-4c0d-aa47-977bf4584328",
    "warehouseId": "f650bba6-8ad4-40a9-a86e-e9c19b43ad96",
    "name": "Southworth District",
    "address": "5204 Northview Alley",
    "city": "Southworth",
    "state": "WA",
    "postalCode": "98386",
    "salesTax": 0.09,
    "yearToDateBalance": 0.0,
    "nextOrderId": "",
    "latitude": 47.5104,
    "longitude": -122.4991
  },
  {
    "districtId": "f294705a-5cb2-4866-9473-074ba7361338",
    "warehouseId": "f650bba6-8ad4-40a9-a86e-e9c19b43ad96",
    "name": "South Colby District",
    "address": "3 Parkside Pass",
    "city": "South Colby",
    "state": "WA",
    "postalCode": "98384",
    "salesTax": 0.092,
    "yearToDateBalance": 0.0,
    "nextOrderId": "",
    "latitude": 47.5218,
    "longitude": -122.5396
  },
  {
    "districtId": "cb5afc41-1653-4adf-9acc-a3c0df6b5321",
    "warehouseId": "f650bba6-8ad4-40a9-a86e-e9c19b43ad96",
    "name": "Manchester District",
    "address": "80 Main Lane",
    "city": "Manchester",
    "state": "WA",
    "postalCode": "98353",
    "salesTax": 0.0635,
    "yearToDateBalance": 0.0,
    "nextOrderId": "",
    "latitude": 47.5952,
    "longitude": 122.6225
  },
  {
    "districtId": "b27df665-88d4-4084-b9b8-b0a42ecb12e7",
    "warehouseId": "f650bba6-8ad4-40a9-a86e-e9c19b43ad96",
    "name": "Retsil District",
    "address": "890 Spohn Point",
    "city": "Retsil",
    "state": "WA",
    "postalCode": "98378",
    "salesTax": 0.065,
    "yearToDateBalance": 0.0,
    "nextOrderId": "",
    "latitude": 47.688,
    "longitude": -122.7293
  },
  {
    "districtId": "86bee2bb-700d-4339-b7df-ccdaca24fac7",
    "warehouseId": "f650bba6-8ad4-40a9-a86e-e9c19b43ad96",
    "name": "Port Orchard District",
    "address": "440 Eagle Crest Place",
    "city": "Port Orchard",
    "state": "WA",
    "postalCode": "98366",
    "salesTax": 0.092,
    "yearToDateBalance": 0.0,
    "nextOrderId": "",
    "latitude": 47.4707,
    "longitude": -122.651
  },
  {
    "districtId": "588a8550-2a41-4ca2-8001-efcf0db2b331",
    "warehouseId": "f650bba6-8ad4-40a9-a86e-e9c19b43ad96",
    "name": "Bremerton District",
    "address": "5032 Carberry Circle",
    "city": "Bremerton",
    "state": "WA",
    "postalCode": "98314",
    "salesTax": 0.09,
    "yearToDateBalance": 0.0,
    "nextOrderId": "",
    "latitude": 47.5686,
    "longitude": -122.6374
  },
  {
    "districtId": "48400974-44cd-4107-9cf7-d60b00175ff9",
    "warehouseId": "f650bba6-8ad4-40a9-a86e-e9c19b43ad96",
    "name": "Bellevue District",
    "address": "460 Scott Parkway",
    "city": "Bellevue Park",
    "state": "WA",
    "postalCode": "98006",
    "salesTax": 0.0725,
    "yearToDateBalance": 0.0,
    "nextOrderId": "",
    "latitude": 47.4323,
    "longitude": -121.8034
  },
  {
    "districtId": "dfd4ea38-c50a-48a9-8aec-1a447e397a42",
    "warehouseId": "f650bba6-8ad4-40a9-a86e-e9c19b43ad96",
    "name": "Mercer Island District",
    "address": "813 Sunnyside Lane",
    "city": "Mercer Island",
    "state": "WA",
    "postalCode": "98040",
    "salesTax": 0.101,
    "yearToDateBalance": 0.0,
    "nextOrderId": "",
    "latitude": 47.5602,
    "longitude": -122.2281
  }
]
